{"data":[{"location":{"street":"44 E Atlantic Ave ","city":"Delray Beach","state":"FL","country":"United States","zip":"33444","latitude":26.46154,"longitude":-80.07295},"name":"Yama Japanese Restaurant","talking_about_count":0,"id":"425927397586568"},{"location":{"street":"32 E Atlantic Ave","city":"Delray Beach","state":"FL","country":"United States","zip":"33444","latitude":26.4613895,"longitude":-80.0724335},"name":"32 East","likes":3523,"talking_about_count":47,"id":"159805597508831"},{"location":{"street":"","city":"Delray Beach","state":"FL","country":"United States","zip":"33444","latitude":26.462386060461,"longitude":-80.070925140268},"name":"Solita Italian (restaurant&ultra lounge)","likes":29,"talking_about_count":1,"id":"161208423932653"},{"location":{"street":"52 N Swinton Ave Delray Beach, FL 33444","city":"Delray Beach","state":"FL","country":"United States","zip":"","latitude":26.46327902884,"longitude":-80.073262446032},"name":"Dada Restaurant 52 N. Swinton Avenue Delray Beach, FL 33444","likes":74,"talking_about_count":4,"id":"144048685667402"},{"location":{"street":"501 E Atlantic Ave","city":"Delray Beach","state":"FL","country":"United States","zip":"33483","latitude":26.4618893,"longitude":-80.0678101},"name":"Mussel Beach Restaurant","likes":164,"talking_about_count":70,"id":"400676070034935"},{"location":{"street":"119 E Atlantic Ave","city":"Delray Beach","state":"FL","country":"United States","zip":"33444-3724","latitude":26.4617844,"longitude":-80.071579,"located_in":"103097299730118"},"name":"Tramonti","likes":785,"talking_about_count":69,"id":"120327277978804"},{"location":{"street":"330 E Atlantic Ave","city":"Delray Beach","state":"FL","country":"United States","zip":"33483","latitude":26.46162466,"longitude":-80.06896077},"name":"Green Owle","talking_about_count":0,"id":"215695471840385"},{"location":{"street":"200 NE 2nd Ave, Suite 110","city":"Delray Beach","state":"FL","country":"United States","zip":"33344","latitude":26.4660892,"longitude":-80.0712814},"name":"Yama Japanese Restaurant","likes":288,"talking_about_count":19,"id":"173799715976391"},{"location":{"street":"32 SE 2nd Ave","city":"Delray Beach","state":"FL","country":"United States","zip":"33444","latitude":26.4604206,"longitude":-80.0712433},"name":"Salt7","likes":11013,"talking_about_count":400,"id":"319081394825428"},{"location":{"street":"","city":"Delray Beach","state":"FL","country":"United States","zip":"","latitude":26.461821673333,"longitude":-80.070459026667},"name":"Atlantic Ocean Club Restaurant, Delray","talking_about_count":0,"id":"114449728629742"},{"location":{"street":"25 SW 5th Ave","city":"Delray Beach","state":"FL","country":"United States","zip":"33444","latitude":26.4611397,"longitude":-80.0780106},"name":"Sweet's Sensational Cuisine & Catering","likes":110,"talking_about_count":8,"id":"387811268020337"},{"location":{"street":"1717 N Federal Hwy","city":"Delray Beach","state":"FL","country":"United States","zip":"33483-6036","latitude":26.4829006,"longitude":-80.0655594},"name":"Sande's Restaurant","likes":76,"talking_about_count":6,"id":"111440078895125"},{"location":{"street":"","city":"Delray Beach","state":"FL","country":"United States","zip":"33444","latitude":26.461706617872,"longitude":-80.07735558793},"name":"Zirre Thai And Sushi Restaurant","talking_about_count":0,"id":"147964091992867"},{"location":{"street":"540 W Atlantic Ave","city":"Delray Beach","state":"FL","country":"United States","zip":"33444-2556","latitude":26.46138,"longitude":-80.07901},"name":"Jackie One Restaurants","talking_about_count":0,"id":"113517005348358"},{"location":{"street":"1459 S Congress Ave","city":"Delray Beach","state":"FL","country":"United States","zip":"33445-6378","latitude":26.445885491773,"longitude":-80.091671598893},"name":"Excell Restaurant","likes":58,"talking_about_count":2,"id":"115904921763733"},{"location":{"street":"386 C SE 2nd Ave","city":"Delray Beach","state":"FL","country":"United States","zip":"33483","latitude":26.454977,"longitude":-80.0710831},"name":"Best Caribbean Food Restaurant","likes":187,"talking_about_count":0,"id":"1584593291769284"},{"location":{"street":"1684 S Federal Hwy","city":"Delray Beach","state":"FL","country":"United States","zip":"33483-5030","latitude":26.440953885225,"longitude":-80.072298641471},"name":"Fratelli's Italian Restaurant-East","likes":284,"talking_about_count":1,"id":"111711342197682"},{"location":{"street":"1210 Linton Blvd","city":"Delray Beach","state":"FL","country":"United States","zip":"33444","latitude":26.4382706,"longitude":-80.0858383},"name":"Steak 'n Shake","likes":50,"talking_about_count":20,"id":"248443115304782"},{"location":{"street":"139 NW 5th Ave","city":"Delray Beach","state":"FL","country":"United States","zip":"33444-2652","latitude":26.4649906,"longitude":-80.0779724},"name":"The Restaurant Inc","likes":1,"talking_about_count":0,"id":"116456478379562"},{"location":{"street":"4285 W Atlantic Ave","city":"Delray Beach","state":"FL","country":"United States","zip":"33445-3908","latitude":26.458286003806,"longitude":-80.110731068643},"name":"La Bamba Mexican & Spanish Restaurant","likes":1527,"talking_about_count":89,"id":"115507555138889"},{"location":{"street":"1255 SW 4th Ave, ","city":"Delray Beach","state":"FL","country":"United States","zip":"33444","latitude":26.4429836,"longitude":-80.0769348},"name":"Restaurant Appliance Depot","likes":199,"talking_about_count":10,"id":"1562137230705926"},{"location":{"street":"","city":"Delray Beach","state":"FL","country":"United States","zip":"33445","latitude":26.445919591885,"longitude":-80.09156455663},"name":"Excel Hatian Restaurant  Delray Bch Fla","likes":6,"talking_about_count":0,"id":"190467467704966"},{"location":{"street":"600 N Congress Ave","city":"Delray Beach","state":"FL","country":"United States","zip":"33445-3433","latitude":26.4718704,"longitude":-80.0933685},"name":"Edde's Italian Restaurant","likes":2,"talking_about_count":0,"id":"167606783252601"},{"location":{"street":"2717 N Federal Hwy","city":"Delray Beach","state":"FL","country":"United States","zip":"33483","latitude":26.49016,"longitude":-80.0634537},"name":"Phyllis G's Enigma Restaurant","likes":68,"talking_about_count":9,"id":"107426535993608"},{"location":{"street":"2275 S Federal Hwy","city":"Delray Beach","state":"FL","country":"United States","zip":"33483","latitude":26.4333,"longitude":-80.0712814},"name":"Out of Denmark Restaurant","likes":358,"talking_about_count":5,"id":"1413689212212578"},{"location":{"street":"1731 N Federal Hwy","city":"Delray Beach","state":"FL","country":"United States","zip":"33483","latitude":26.482181209126,"longitude":-80.065681671178},"name":"Eclectic Eats Restaurant Lounge & Garden","likes":1279,"talking_about_count":0,"id":"398337070233604"},{"location":{"street":"40 S Ocean Blvd","city":"Delray Beach","state":"FL","country":"United States","zip":"33483","latitude":26.460928147914,"longitude":-80.058584238735},"name":"Bostons On The Beach Delray Beach Florida","likes":14653,"talking_about_count":324,"id":"97922479964"},{"location":{"street":"40 S Ocean Blvd","city":"Delray Beach","state":"FL","country":"United States","zip":"33483","latitude":26.4609108,"longitude":-80.0587311},"name":"Sandbar at Boston's","likes":4802,"talking_about_count":305,"id":"189246561193558"},{"location":{"street":"15 NE 2nd Ave","city":"Delray Beach","state":"FL","country":"United States","zip":"33444","latitude":26.461904631349,"longitude":-80.071005161285},"name":"El Camino","likes":14833,"talking_about_count":989,"id":"201147056700067"},{"location":{"street":"301 E Atlantic Ave","city":"Delray Beach","state":"FL","country":"United States","zip":"33483","latitude":26.4619102,"longitude":-80.0699615},"name":"Johnnie Browns","likes":2883,"talking_about_count":229,"id":"123120557740180"},{"location":{"street":"8 E Atlantic Ave","city":"Delray Beach","state":"FL","country":"United States","zip":"FL","latitude":26.4613609,"longitude":-80.0727386},"name":"Smoke BBQ","likes":11218,"talking_about_count":274,"id":"630839350347960"},{"location":{"street":"52 N Swinton Ave","city":"Delray Beach","state":"FL","country":"United States","zip":"33444","latitude":26.4632797,"longitude":-80.0734406},"name":"Dada","likes":13019,"talking_about_count":336,"id":"105716856193669"},{"location":{"street":"213 E Atlantic Ave","city":"Delray Beach","state":"FL","country":"United States","zip":"33444","latitude":26.4619293,"longitude":-80.0706635},"name":"City Oyster and Sushi Bar","likes":6131,"talking_about_count":167,"id":"93950327082"},{"location":{"street":"900 East Atlantic Ave \u2013 Suite 22","city":"Delray Beach","state":"FL","country":"United States","zip":"33483","latitude":26.461184937555,"longitude":-80.063804391923},"name":"Hudson at Waterway East","likes":2238,"talking_about_count":459,"id":"732039733549529"},{"location":{"street":"34 S Ocean Blvd","city":"Delray Beach","state":"FL","country":"United States","zip":"33483","latitude":26.4612637,"longitude":-80.0585709},"name":"Caffe Luna Rosa","likes":2686,"talking_about_count":166,"id":"313879066430"},{"location":{"street":"2809 S Ocean Blvd","city":"Highland Beach","state":"FL","country":"United States","zip":"33487","latitude":26.4236908,"longitude":-80.0636978},"name":"Delray Sands Resort","likes":1845,"talking_about_count":133,"id":"101571858461"},{"location":{"street":"169 NE 2nd Ave","city":"Delray Beach","state":"FL","country":"United States","zip":"33444","latitude":26.4647598,"longitude":-80.0709305},"name":"Max's Harvest","likes":7488,"talking_about_count":393,"id":"197011870343857"},{"location":{"street":"4 E Atlantic Ave","city":"Delray Beach","state":"FL","country":"United States","zip":"33444","latitude":26.4615154,"longitude":-80.072876},"name":"Tryst Delray","likes":7289,"talking_about_count":620,"id":"152084058158096"},{"location":{"street":"1801 South Federal Highway","city":"Delray Beach","state":"FL","country":"United States","zip":"33483","latitude":26.438534798824,"longitude":-80.071327},"name":"The Habit Burger Grill","likes":733,"talking_about_count":37,"id":"426974330816026"},{"location":{"street":"420 E Atlantic Ave","city":"Delray Beach","state":"FL","country":"United States","zip":"33444","latitude":26.461578639641,"longitude":-80.06856946726},"name":"Lemongrass Asian Bistro","likes":14221,"talking_about_count":531,"id":"176243655518"},{"location":{"street":"840 E Atlantic Ave","city":"Delray Beach","state":"FL","country":"United States","zip":"33483","latitude":26.461505764145,"longitude":-80.064597335539},"name":"Deck 84","likes":119,"talking_about_count":310,"id":"1584444418466808"},{"location":{"street":"160 SE 6th Ave","city":"Delray Beach","state":"FL","country":"United States","zip":"33483","latitude":26.4584904,"longitude":-80.067337},"name":"Cooking The Haitian way","likes":3181,"talking_about_count":23,"id":"237469486274040"},{"location":{"street":"411 E Atlantic Ave","city":"Delray Beach","state":"FL","country":"United States","zip":"33483","latitude":26.4619293,"longitude":-80.0687027},"name":"Caffe Martier - Delray Beach","likes":858,"talking_about_count":90,"id":"134398629925486"},{"location":{"street":"200 NE 2nd Ave Suite 109","city":"Delray Beach","state":"FL","country":"United States","zip":"33444","latitude":26.4660892,"longitude":-80.0712814},"name":"Brule Bistro","likes":1902,"talking_about_count":100,"id":"140550566023445"},{"location":{"street":"25 NE 2nd Ave","city":"Delray Beach","state":"FL","country":"United States","zip":"33444","latitude":26.4623604,"longitude":-80.0706787},"name":"SoLita & Mastino Delray","likes":3303,"talking_about_count":26,"id":"167720483282980"},{"location":{"street":"307 E Atlantic Ave","city":"Delray Beach","state":"FL","country":"United States","zip":"33483","latitude":26.4619293,"longitude":-80.0698318},"name":"Delray Luigis Coal Oven Pizza","likes":561,"talking_about_count":46,"id":"630251150387434"},{"location":{"street":"2410 N Federal Hwy","city":"Delray Beach","state":"FL","country":"United States","zip":"33483","latitude":26.4879799,"longitude":-80.0651932},"name":"Ellie's 50's Diner","likes":849,"talking_about_count":23,"id":"142627479109699"},{"location":{"street":"35 NE 2nd Ave","city":"Delray Beach","state":"FL","country":"United States","zip":"33444-3744","latitude":26.462301625698,"longitude":-80.070446233008},"name":"Brus Room Wings & Ribs","likes":608,"talking_about_count":80,"id":"120115304671865"},{"location":{"street":"430 East Linton Blvd","city":"Delray Beach","state":"FL","country":"United States","zip":"33483","latitude":26.439749840887,"longitude":-80.06937300121},"name":"Another Broken Egg Cafe, Delray","likes":695,"talking_about_count":52,"id":"1636167889947488"},{"location":{"street":"131 E Atlantic Ave","city":"Delray Beach","state":"FL","country":"United States","zip":"33444-3724","latitude":26.4618607,"longitude":-80.0712433},"name":"Sazio","likes":691,"talking_about_count":21,"id":"113589442009140"},{"location":{"street":"432 E Atlantic Ave","city":"Delray Beach","state":"FL","country":"United States","zip":"33483","latitude":26.461525,"longitude":-80.0684433},"name":"Cut 342","likes":75,"talking_about_count":7,"id":"281128005267926"},{"location":{"street":"40 S Ocean Blvd","city":"Delray Beach","state":"FL","country":"United States","zip":"33483","latitude":26.460913,"longitude":-80.059053},"name":"The Beach","likes":301,"talking_about_count":7,"id":"188341474549031"},{"location":{"street":"259 NE 2nd Ave","city":"Delray Beach","state":"FL","country":"United States","zip":"33444","latitude":26.4664345,"longitude":-80.071022},"name":"Papa's Tapas","likes":2272,"talking_about_count":104,"id":"181747798551894"},{"location":{"street":"253 SE 5th Ave","city":"Delray Beach","state":"FL","country":"United States","zip":"33483","latitude":26.4569397,"longitude":-80.0676422},"name":"La Cigale Mediterranean","likes":1647,"talking_about_count":16,"id":"324295754430007"},{"location":{"street":"1720 S Federal Hwy","city":"Delray Beach","state":"FL","country":"United States","zip":"33483","latitude":26.440186223307,"longitude":-80.07266590226},"name":"Applebee's | DELRAY BEACH","likes":178,"talking_about_count":23,"id":"211046378950113"},{"location":{"street":"335 East Linton Blvd","city":"Delray Beach","state":"FL","country":"United States","zip":"33483","latitude":26.4399643,"longitude":-80.0694504},"name":"Carrabba's Italian Grill- Delray Beach","likes":218,"talking_about_count":15,"id":"131494546927002"},{"location":{"street":"528 NE 2nd St","city":"Delray Beach","state":"FL","country":"United States","zip":"33483","latitude":26.4651642,"longitude":-80.067749},"name":"The New Vegan","likes":1281,"talking_about_count":124,"id":"1405101829751943"},{"location":{"street":"1000 E Atlantic Ave","city":"Delray Beach","state":"FL","country":"United States","zip":"33483","latitude":26.461715478318,"longitude":-80.06093495297},"name":"Atlantic Grille","likes":461,"talking_about_count":4,"id":"261744037236463"},{"location":{"street":"1560 S Federal Hwy","city":"Delray Beach","state":"FL","country":"United States","zip":"33483","latitude":26.442618281779,"longitude":-80.070234277594},"name":"IHOP","likes":24,"talking_about_count":13,"id":"284052418441206"},{"location":{"street":"1118 E Atlantic Ave","city":"Delray Beach","state":"FL","country":"United States","zip":"33483","latitude":26.461691202994,"longitude":-80.06034876897},"name":"boheme bistro","likes":174,"talking_about_count":7,"id":"296390063771"},{"location":{"street":"19 SE 5th Ave","city":"Delray Beach","state":"FL","country":"United States","zip":"33483","latitude":26.4613628,"longitude":-80.0678635},"name":"Off the Ave Food & Spirits","likes":1771,"talking_about_count":84,"id":"167441576634184"},{"location":{"street":"110 E Atlantic Ave","city":"Delray Beach","state":"FL","country":"United States","zip":"33444","latitude":26.4614105,"longitude":-80.0717773},"name":"Carpe Diem","likes":363,"talking_about_count":15,"id":"215150031849298"},{"location":{"street":"401 W Atlantic Ave Suite R7","city":"Delray Beach","state":"FL","country":"United States","zip":"33444","latitude":26.461690321771,"longitude":-80.077327510766},"name":"Ziree Thai & Sushi","likes":274,"talking_about_count":38,"id":"266534450112186"},{"location":{"street":"301 NE 3rd Ave","city":"Delray Beach","state":"FL","country":"United States","zip":"33444","latitude":26.4673004,"longitude":-80.0700226},"name":"3rd & 3rd","likes":864,"talking_about_count":5,"id":"429778940434736"},{"location":{"street":"1840 S Federal Hwy","city":"Delray Beach","state":"FL","country":"United States","zip":"33483-3311","latitude":26.4382591,"longitude":-80.0723877},"name":"Original Pancake House","likes":76,"talking_about_count":14,"id":"115996161754213"},{"location":{"street":"520 Linton Blvd Suite 101","city":"Delray Beach","state":"FL","country":"United States","zip":"33444","latitude":26.4395351,"longitude":-80.0782623},"name":"Chipotle","likes":692,"talking_about_count":21,"id":"156984397647163"},{"location":{"street":"520 E Atlantic Ave","city":"Delray Beach","state":"FL","country":"United States","zip":"33483","latitude":26.461623551066,"longitude":-80.067551007995},"name":"Le Macaron French Pastries Delray Beach","likes":2050,"talking_about_count":14,"id":"355565011200964"},{"location":{"street":"","city":"Delray Beach","state":"FL","country":"United States","zip":"33444","latitude":26.440052703882,"longitude":-80.077911007904},"name":"Tijuana Flats New Store Linton Blvd","likes":53,"talking_about_count":5,"id":"721710334567381"},{"location":{"street":"E Atlantic Ave & N Railroad Ave","city":"Delray Beach","state":"FL","country":"United States","zip":"33444","latitude":26.462308984692,"longitude":-80.070444199986},"name":"Bru's Room Sports Bar and Grill","likes":60,"talking_about_count":1,"id":"200680419974000"},{"location":{"street":"660 Linton Blvd Suite 110","city":"Delray Beach","state":"FL","country":"United States","zip":"33444","latitude":26.439342177008,"longitude":-80.079955802787},"name":"The Beat Cup Cafe","likes":3065,"talking_about_count":38,"id":"352811114789791"},{"location":{"street":"6 South Ocean Blvd","city":"Delray Beach","state":"FL","country":"United States","zip":"33483","latitude":26.4613895,"longitude":-80.0586777},"name":"BURGERFI","likes":2779,"talking_about_count":98,"id":"232192236829904"},{"location":{"street":"10 N Swinton Ave","city":"Delray Beach","state":"FL","country":"United States","zip":"33444-2632","latitude":26.4619102,"longitude":-80.0733109},"name":"Doc's All American","likes":228,"talking_about_count":28,"id":"108187155889647"},{"location":{"street":"777 E Atlantic Ave ","city":"Delray Beach","state":"FL","country":"United States","zip":"33483","latitude":26.4625797,"longitude":-80.0655136},"name":"DIG Delray Beach","likes":520,"talking_about_count":0,"id":"770959036277589"},{"location":{"street":"777 E Atlantic Ave","city":"Delray Beach","state":"FL","country":"United States","zip":"33483","latitude":26.4625797,"longitude":-80.0655136},"name":"Free House American Eatery & Pub","likes":369,"talking_about_count":144,"id":"1386379881678285"},{"location":{"street":"1800 S Federal Highway","city":"Delray Beach","state":"FL","country":"United States","zip":"33483","latitude":26.4394302,"longitude":-80.0719299},"name":"Chick-fil-A Delray Beach","likes":332,"talking_about_count":8,"id":"846823342028717"},{"location":{"street":"634 E Atlantic Ave","city":"Delray Beach","state":"FL","country":"United States","zip":"33483","latitude":26.461608282224,"longitude":-80.066440444313},"name":"J&J Seafood Bar and Grill","likes":1092,"talking_about_count":19,"id":"54649676399"},{"location":{"street":"20 SE 5th Ave","city":"Delray Beach","state":"FL","country":"United States","zip":"33483","latitude":26.4613514,"longitude":-80.0681381},"name":"Rocky's Italian Bistro & Bar","likes":171,"talking_about_count":10,"id":"139934986120001"},{"location":{"street":"1155 E Atlantic Ave","city":"Delray Beach","state":"FL","country":"United States","zip":"33483","latitude":26.4619007,"longitude":-80.0601578},"name":"Ben & Jerry's - Delray Beach","likes":832,"talking_about_count":26,"id":"32888117823"},{"location":{"street":"220 Congress Park Dr","city":"Delray Beach","state":"FL","country":"United States","zip":"33445-4670","latitude":26.4568996,"longitude":-80.0943909},"name":"Bri 1805 Congress LLC","talking_about_count":0,"id":"161544597202499"},{"location":{"street":"302 NE 4th St","city":"Delray Beach","state":"FL","country":"United States","zip":"33444","latitude":26.46875,"longitude":-80.0696106},"name":"Fit Food Express","likes":1611,"talking_about_count":2,"id":"261199203922901"},{"location":{"street":"85 SE 6th Ave","city":"Delray Beach","state":"FL","country":"United States","zip":"33483","latitude":26.4600697,"longitude":-80.0667114},"name":"The Porch - Delray Beach","likes":416,"talking_about_count":5,"id":"412094415588604"},{"location":{"street":"1732 S Federal Hwy","city":"Delray Beach","state":"FL","country":"United States","zip":"33483","latitude":26.440011132784,"longitude":-80.073151957719},"name":"Bagels With Deli","likes":215,"talking_about_count":7,"id":"421508337894687"},{"location":{"street":"245 NE 2nd Ave","city":"Delray Beach","state":"FL","country":"United States","zip":"33444","latitude":26.466339480844,"longitude":-80.070945016973},"name":"Two Fat Cookies","likes":1091,"talking_about_count":8,"id":"115636081791600"},{"location":{"street":"950 Linton Blvd","city":"Delray Beach","state":"FL","country":"United States","zip":"33444-8155","latitude":26.4392605,"longitude":-80.082901},"name":"Pollo Tropical","likes":89,"talking_about_count":14,"id":"111370545564180"},{"location":{"street":"241 NE 2nd Ave","city":"Delray Beach","state":"FL","country":"United States","zip":"33444","latitude":26.466142422623,"longitude":-80.071101502292},"name":"Bistro 241","likes":261,"talking_about_count":5,"id":"491220514222953"},{"location":{"street":"301 E Atlantic Ave","city":"Delray Beach","state":"FL","country":"United States","zip":"33483","latitude":26.4619102,"longitude":-80.0699615},"name":"Johnny Browns, Delray","likes":270,"talking_about_count":10,"id":"190101921019692"},{"location":{"street":"1648 S Federal Hwy","city":"Delray Beach","state":"FL","country":"United States","zip":"33483-5030","latitude":26.441957869231,"longitude":-80.072083104526},"name":"Sushi Masa Thai Cuisine","likes":70,"talking_about_count":16,"id":"116072628420328"},{"location":{"street":"149 NE 4th Ave","city":"Delray Beach","state":"FL","country":"United States","zip":"33483","latitude":26.4641724,"longitude":-80.0689621},"name":"Bamboo Fire Cafe","likes":517,"talking_about_count":17,"id":"105223249540083"},{"location":{"street":"187 NE 2nd Ave","city":"Delray Beach","state":"FL","country":"United States","zip":"33444","latitude":26.4649372,"longitude":-80.0709915},"name":"The Grove","likes":298,"talking_about_count":7,"id":"541167175897819"},{"location":{"street":"263 NE 2nd Ave","city":"Delray Beach","state":"FL","country":"United States","zip":"33444","latitude":26.4664841,"longitude":-80.071022},"name":"Christina's","likes":378,"talking_about_count":7,"id":"216175501739915"},{"location":{"street":"142 SE 6th Ave","city":"Delray Beach","state":"FL","country":"United States","zip":"33483-5260","latitude":26.4589291,"longitude":-80.0673523},"name":"Senor Burrito","likes":137,"talking_about_count":15,"id":"108114292563283"},{"location":{"street":"1701 S Federal Hwy","city":"Delray Beach","state":"FL","country":"United States","zip":"33483","latitude":26.441177725291,"longitude":-80.069828298333},"name":"Panera Bread","likes":76,"talking_about_count":4,"id":"101037983357504"},{"location":{"street":"1625 S Congress Ave","city":"Delray Beach","state":"FL","country":"United States","zip":"33445-6301","latitude":26.4359894,"longitude":-80.0916977},"name":"Terranova Arbors 1625","talking_about_count":0,"id":"154590261243578"},{"location":{"street":"9 SE 7th Ave","city":"Delray Beach","state":"FL","country":"United States","zip":"33483","latitude":26.461393336091,"longitude":-80.06589327505},"name":"D'Angelo Trattoria","likes":335,"talking_about_count":2,"id":"137693879670570"},{"location":{"street":"814 E Atlantic Ave","city":"Delray Beach","state":"FL","country":"United States","zip":"33483","latitude":26.4615345,"longitude":-80.0651627},"name":"Lilo's Delray","likes":337,"talking_about_count":14,"id":"619610991447017"},{"location":{"street":"9 S Swinton Ave","city":"Delray Beach","state":"FL","country":"United States","zip":"33444","latitude":26.4611797,"longitude":-80.0729294},"name":"Jimmy's Bistro","likes":1035,"talking_about_count":7,"id":"332456055578"},{"location":{"street":"215 NE 6th Ave","city":"Delray Beach","state":"FL","country":"United States","zip":"33483","latitude":26.4656582,"longitude":-80.0669708},"name":"Granger's Grille","likes":464,"talking_about_count":32,"id":"118014128255022"},{"location":{"street":"10 NE 5th Ave","city":"Delray Beach","state":"FL","country":"United States","zip":"33483","latitude":26.4620495,"longitude":-80.068222},"name":"The Original Popcorn House","likes":427,"talking_about_count":25,"id":"228071950733861"},{"location":{"street":"20 W Atlantic Ave","city":"Delray Beach","state":"FL","country":"United States","zip":"33444","latitude":26.4613495,"longitude":-80.073349},"name":"Nature's Way Cafe (Delray Beach)","likes":1258,"talking_about_count":10,"id":"260911538032"},{"location":{"street":"1690 S Congress Ave","city":"Delray Beach","state":"FL","country":"United States","zip":"33445-6385","latitude":26.4351501,"longitude":-80.0931931},"name":"Terranova Arbors 1690","talking_about_count":0,"id":"105026712897406"},{"location":{"street":"25 NE 2nd Ave","city":"Delray Beach","state":"FL","country":"United States","zip":"33444-3745","latitude":26.4623604,"longitude":-80.0706787},"name":"House of Siam","likes":65,"talking_about_count":8,"id":"120863027925814"},{"location":{"street":"189 NE 2nd Ave","city":"Delray Beach","state":"FL","country":"United States","zip":"33444","latitude":26.4649677,"longitude":-80.0709915},"name":"Casa Di Pepe Italian Ristorante","likes":281,"talking_about_count":0,"id":"164306303632024"},{"location":{"street":"1205 SW 4th Ave","city":"Delray Beach","state":"FL","country":"United States","zip":"33444","latitude":26.4430695,"longitude":-80.0760193},"name":"Gelato Petrini","likes":967,"talking_about_count":4,"id":"227351914046211"},{"location":{"street":"1220 Linton Blvd","city":"Delray Beach","state":"FL","country":"United States","zip":"33445","latitude":26.4391899,"longitude":-80.0854874},"name":"McDonald's at 1220 Linton Blvd","likes":51,"talking_about_count":9,"id":"113980318632350"},{"location":{"street":"800 Palm Trl","city":"Delray Beach","state":"FL","country":"United States","zip":"33483","latitude":26.474417001809,"longitude":-80.063503526584},"name":"Patio Delray","likes":508,"talking_about_count":5,"id":"128968780490827"},{"location":{"street":"","city":"Delray Beach","state":"FL","country":"United States","zip":"33483","latitude":26.461628165417,"longitude":-80.069213717087},"name":"Cupcake Couture Sweet Boutique","likes":4472,"talking_about_count":4,"id":"339223118529"},{"location":{"street":"571 Linton Blvd","city":"Delray Beach","state":"FL","country":"United States","zip":"33444","latitude":26.4399548,"longitude":-80.0787582},"name":"Five Guys","likes":1,"talking_about_count":12,"id":"841943679208426"},{"location":{"street":"","city":"Delray Beach","state":"FL","country":"United States","zip":"","latitude":26.4413801125,"longitude":-80.06986173},"name":"Zona Fresca Delray Beach","likes":3,"talking_about_count":6,"id":"1612060625728844"},{"location":{"street":"1122 E Atlantic Ave","city":"Delray Beach","state":"FL","country":"United States","zip":"33483","latitude":26.4615555,"longitude":-80.0601349},"name":"El Patron Cantina Mexicana","likes":33,"talking_about_count":3,"id":"278569412245619"},{"location":{"street":"1000 Linton Blvd Suite A3","city":"Delray Beach","state":"FL","country":"United States","zip":"33444-1123","latitude":26.4387302,"longitude":-80.0838699},"name":"Dairy Queen","likes":58,"talking_about_count":0,"id":"387762021239380"},{"location":{"street":"95 SE 4th Ave","city":"Delray Beach","state":"FL","country":"United States","zip":"33483","latitude":26.4600029,"longitude":-80.0688782},"name":"Juice Papi","likes":45,"talking_about_count":0,"id":"809152042472586"},{"location":{"street":"42 SE 2nd Ave","city":"Delray Beach","state":"FL","country":"United States","zip":"33444-3616","latitude":26.4599934,"longitude":-80.0711746},"name":"Olio","likes":43,"talking_about_count":7,"id":"117349058284392"},{"location":{"street":"","city":"Delray Beach","state":"FL","country":"United States","zip":"33444","latitude":26.461674924942,"longitude":-80.071998295052},"name":"Cabana Nuevo Latino","likes":15,"talking_about_count":4,"id":"182687788455847"},{"location":{"street":"660 Linton Blvd Suite 110","city":"Delray Beach","state":"FL","country":"United States","zip":"33444","latitude":26.4390907,"longitude":-80.0806427},"name":"Empanadas Delrey","likes":431,"talking_about_count":0,"id":"283589518458127"},{"location":{"street":"12 SE 5th Ave","city":"Delray Beach","state":"FL","country":"United States","zip":"33483","latitude":26.461422,"longitude":-80.0681381},"name":"HiWay Burger","likes":828,"talking_about_count":3,"id":"390364947640994"},{"location":{"street":"165 NE 2nd Ave","city":"Delray Beach","state":"FL","country":"United States","zip":"33444","latitude":26.4646702,"longitude":-80.0709076},"name":"IL CONTADINO","likes":133,"talking_about_count":10,"id":"761913587235881"},{"location":{"street":"640-7 East Atlantic Ave","city":"Delray Beach","state":"FL","country":"United States","zip":"33483","latitude":26.4611893,"longitude":-80.0662537},"name":"Hurricane Bar & Lounge","likes":2103,"talking_about_count":81,"id":"49836880291"},{"location":{"street":"A1A","city":"Delray Beach","state":"FL","country":"United States","zip":"33483-6932","latitude":26.4569702,"longitude":-80.0589828},"name":"Caffe Luna Rosa","likes":315,"talking_about_count":17,"id":"139584202755658"},{"location":{"street":"","city":"Delray Beach","state":"FL","country":"United States","zip":"33445","latitude":26.4828878875,"longitude":-80.107837020834},"name":"3788 Satin Leaf Court","talking_about_count":0,"id":"152472048099031"},{"location":{"street":"290 E Atlantic Ave","city":"Delray Beach","state":"FL","country":"United States","zip":"33444","latitude":26.4614296,"longitude":-80.0706635},"name":"Vic & Angelo's Delray Beach","likes":3873,"talking_about_count":182,"id":"244262235994"},{"location":{"street":"1676 S Federal Hwy","city":"Delray Beach","state":"FL","country":"United States","zip":"33483-5030","latitude":26.441158819599,"longitude":-80.072232427465},"name":"Mediterranean Kebob House","likes":40,"talking_about_count":1,"id":"115641765125558"},{"location":{"street":"","city":"Delray Beach","state":"FL","country":"United States","zip":"33445","latitude":26.48033043611,"longitude":-80.108380748738},"name":"3770 Sabal Lakes","talking_about_count":0,"id":"116846575092064"},{"location":{"street":"660 Linton Blvd Suite 117","city":"Delray Beach","state":"FL","country":"United States","zip":"33444","latitude":26.439420959453,"longitude":-80.080628501955},"name":"Papa Giuseppe Pizza","likes":155,"talking_about_count":4,"id":"200694023313711"},{"location":{"street":"","city":"Boynton Beach","state":"FL","country":"United States","zip":"","latitude":26.4622614,"longitude":-80.0653446},"name":"Ceasar's Famous Ribs & BBQ","likes":106,"talking_about_count":0,"id":"517674415002301"},{"location":{"street":"","city":"Delray Beach","state":"FL","country":"United States","zip":"","latitude":26.463701308056,"longitude":-80.067122758889},"name":"Anthonys Colefire Pizza Delray Beach Florida","likes":4,"talking_about_count":28,"id":"241429585938623"},{"location":{"street":"540 W Atlantic Ave","city":"Delray Beach","state":"FL","country":"United States","zip":"33444","latitude":26.46138,"longitude":-80.07901},"name":"Dee Dee's Conch Rib & Crab Shack","likes":253,"talking_about_count":14,"id":"192860074059308"},{"location":{"street":"2001 W Atlantic Ave","city":"Delray Beach","state":"FL","country":"United States","zip":"33445","latitude":26.460767729079,"longitude":-80.093858311686},"name":"The Sandwich Man. Pizza Too","likes":193,"talking_about_count":1,"id":"153727611334139"},{"location":{"street":"240 Linton Blvd","city":"Delray Beach","state":"FL","country":"United States","zip":"33444","latitude":26.43927,"longitude":-80.0745773},"name":"Taco Bell","likes":8,"talking_about_count":1,"id":"270588462997064"},{"location":{"street":"432 E Atlantic Ave","city":"Delray Beach","state":"FL","country":"United States","zip":"33483","latitude":26.461596152727,"longitude":-80.068273465455},"name":"Cut 432 Steakhouse","likes":5,"talking_about_count":0,"id":"787898087935075"},{"location":{"street":"2200 Lake Ida Rd #2-F","city":"Delray Beach","state":"FL","country":"United States","zip":"33445","latitude":26.4726505,"longitude":-80.0971832},"name":"Caribbean cafe","likes":200,"talking_about_count":10,"id":"204028262970439"},{"location":{"street":"","city":"Delray Beach","state":"FL","country":"United States","zip":"","latitude":26.468110568376,"longitude":-80.056380989983},"name":"North End","likes":3,"talking_about_count":2,"id":"132581023471716"},{"location":{"street":"4285 W Atlantic Ave","city":"Delray Beach","state":"FL","country":"United States","zip":"33445","latitude":26.45817564865,"longitude":-80.110773611343},"name":"La Bamba","likes":12,"talking_about_count":1,"id":"134164956657474"},{"location":{"street":"","city":"Delray Beach","state":"FL","country":"United States","zip":"33445","latitude":26.472226911492,"longitude":-80.098998994699},"name":"Club 2403","talking_about_count":0,"id":"198168960284616"},{"location":{"street":"1499 S Congress Ave","city":"Delray Beach","state":"FL","country":"United States","zip":"33445","latitude":26.44114361914,"longitude":-80.091742348113},"name":"Taqueria Huetamo","likes":14,"talking_about_count":1,"id":"228448187356103"},{"location":{"street":"301 NE 3rd Ave","city":"Delray Beach","state":"FL","country":"United States","zip":"33444","latitude":26.4673004,"longitude":-80.0700226},"name":"Third and Third","likes":55,"talking_about_count":0,"id":"386471878135617"},{"location":{"street":"","city":"Delray Beach","state":"FL","country":"United States","zip":"33483","latitude":26.46184,"longitude":-80.06364},"name":"Cut 434","talking_about_count":0,"id":"127116044051027"},{"location":{"street":"15 NE 2nd Avenue","city":"Delray Beach","state":"FL","country":"United States","zip":"33444","latitude":26.462086,"longitude":-80.070919},"name":"El Camino-Mexican Soul Food","likes":1,"talking_about_count":2,"id":"203306433196726"},{"location":{"street":"","city":"Delray Beach","state":"FL","country":"United States","zip":"33444","latitude":26.463219994716,"longitude":-80.073167443224},"name":"Delray Beach Bus Loop","likes":23,"talking_about_count":0,"id":"219368604792673"},{"location":{"street":"260 Linton Blvd","city":"Delray Beach","state":"FL","country":"United States","zip":"33444-8140","latitude":26.4392395,"longitude":-80.0751266},"name":"Wendy's","likes":17,"talking_about_count":1,"id":"136632126411918"},{"location":{"street":"360 Linton Blvd","city":"Delray Beach","state":"FL","country":"United States","zip":"33444","latitude":26.4392509,"longitude":-80.0761719},"name":"KFC - Kentucky Fried Chicken","likes":3,"talking_about_count":1,"id":"572689816096915"}],"paging":{"next":"https:\/\/graph.facebook.com\/v2.4\/search?fields=location,name,likes,talking_about_count&limit=250&type=place&q=restaurant&center=26.4614625,-80.0728201&distance=5000&access_token=1452021355091002|x-ZB0iKqWQmYqnJQ-wXoUjl-XtY&offset=250&__after_id=enc_AdBsRkGchWNOGUvmpHZA1y6aZCmDPfsEJ6SoGKpu8gV5wDMGMbjStUKgKGoG5JxUEl0KmN7Gt0ix3y6gGp5Scstoa6"}}