{"data":[{"location":{"street":"333 Fulton St","city":"San Francisco","state":"CA","country":"United States","zip":"94102","latitude":37.7787285,"longitude":-122.4222183},"name":"Plaj Restaurant","likes":740,"talking_about_count":28,"were_here_count":3618,"id":"386775134721685"},{"location":{"street":"855 Terry Francois St","city":"San Francisco","state":"CA","country":"United States","zip":"94158","latitude":37.764178468466,"longitude":-122.38682985417},"name":"The Ramp Restaurant","likes":5305,"talking_about_count":291,"were_here_count":38447,"id":"165177223515372"},{"location":{"street":"","city":"San Francisco","state":"CA","country":"United States","zip":"94102","latitude":37.777093753193,"longitude":-122.42152991209},"name":"The Grove Restaurant","likes":2,"talking_about_count":3,"were_here_count":39,"id":"463408307005784"},{"location":{"street":"1555 Mission St","city":"San Francisco","state":"CA","country":"United States","zip":"94103","latitude":37.7731705,"longitude":-122.4178696},"name":"Zaoh Restaurant - Japanese Cuisine","likes":81,"talking_about_count":9,"were_here_count":727,"id":"83952921066"},{"location":{"street":"Pier 43 1\/2 Fisherman'S Wharf","city":"San Francisco","state":"CA","country":"United States","zip":"94133","latitude":37.809094446457,"longitude":-122.4146899206},"name":"Franciscan Crab Restaurant","likes":3640,"talking_about_count":562,"were_here_count":53174,"id":"170887535890"},{"location":{"street":"225 11th St","city":"San Francisco","state":"CA","country":"United States","zip":"94103","latitude":37.7729301,"longitude":-122.4149475},"name":"Don Ramon's Mexican Restaurant","likes":1958,"talking_about_count":84,"were_here_count":6981,"id":"120134171358709"},{"location":{"street":"1559 Mission St","city":"San Francisco","state":"CA","country":"United States","zip":"94103-2543","latitude":37.7731895,"longitude":-122.4178696},"name":"Shanghai China Restaurant","likes":10,"talking_about_count":2,"were_here_count":329,"id":"116198348396019"},{"location":{"street":"221 Powell St","city":"San Francisco","state":"CA","country":"United States","zip":"94102","latitude":37.786760547773,"longitude":-122.40814294896},"name":"Kuleto's Italian Restaurant","likes":2125,"talking_about_count":20,"were_here_count":17504,"id":"147916228578276"},{"location":{"street":"41 Franklin St","city":"San Francisco","state":"CA","country":"United States","zip":"94102","latitude":37.7749481,"longitude":-122.4210663},"name":"Minas Brazilian Restaurant & Cacha\u00e7aria","likes":771,"talking_about_count":32,"were_here_count":2049,"id":"239669229558150"},{"location":{"street":"Pier 47 On Al Scoma Way ","city":"San Francisco","state":"CA","country":"United States","zip":"94133","latitude":37.80885702707,"longitude":-122.41816852052},"name":"Scoma's Restaurant","likes":4999,"talking_about_count":927,"were_here_count":23952,"id":"131570893538955"},{"location":{"street":"8 Fishermans Wharf","city":"San Francisco","state":"CA","country":"United States","zip":"94133","latitude":37.8084526,"longitude":-122.4160004},"name":"Alioto's Restaurant","likes":2888,"talking_about_count":335,"were_here_count":17248,"id":"6567851131"},{"location":{"street":"2100 Van Ness Ave","city":"San Francisco","state":"CA","country":"United States","zip":"94109","latitude":37.7950783,"longitude":-122.4228668},"name":"Harris' Restaurant, San Francisco","likes":2633,"talking_about_count":24,"were_here_count":18072,"id":"110977712266961"},{"location":{"street":"800 North Point St","city":"San Francisco","state":"CA","country":"United States","zip":"94109","latitude":37.8058701,"longitude":-122.420578},"name":"Restaurant Gary Danko","likes":7819,"talking_about_count":164,"were_here_count":32361,"id":"34260178467"},{"location":{"street":"101 Oak St","city":"San Francisco","state":"CA","country":"United States","zip":"94102-5911","latitude":37.7750435,"longitude":-122.4211121},"name":"Mandarin Villa Restaurant","likes":12,"talking_about_count":0,"were_here_count":368,"id":"115878451757321"},{"location":{"street":"3120 16th St","city":"San Francisco","state":"CA","country":"United States","zip":"94103","latitude":37.7651291,"longitude":-122.4224472},"name":"Picaro Tapas Restaurant","likes":1373,"talking_about_count":100,"were_here_count":26272,"id":"101658836558233"},{"location":{"street":"1 Mission St (At Steuart)","city":"San Francisco","state":"CA","country":"United States","zip":"94105","latitude":37.7933693,"longitude":-122.3927383},"name":"Boulevard Restaurant","likes":4428,"talking_about_count":241,"were_here_count":29339,"id":"197270676977971"},{"location":{"street":"56 Gold St","city":"San Francisco","state":"CA","country":"United States","zip":"94133","latitude":37.7967911,"longitude":-122.4028778},"name":"Bix Restaurant","likes":3047,"talking_about_count":89,"were_here_count":14713,"id":"73296462388"},{"location":{"street":"1085 Mission St","city":"San Francisco","state":"CA","country":"United States","zip":"94103","latitude":37.7793159,"longitude":-122.4105225},"name":"AQ Restaurant","likes":2181,"talking_about_count":38,"were_here_count":10447,"id":"139056442846723"},{"location":{"street":"649 Jackson St","city":"San Francisco","state":"CA","country":"United States","zip":"94133","latitude":37.795929,"longitude":-122.405899},"name":"Great Eastern Restaurant","likes":331,"talking_about_count":83,"were_here_count":21034,"id":"107246145981248"},{"location":{"street":"1031 Irving St","city":"San Francisco","state":"CA","country":"United States","zip":"94122-2215","latitude":37.7636719,"longitude":-122.4689636},"name":"San Tung Chinese Restaurant","likes":1186,"talking_about_count":58,"were_here_count":39300,"id":"112607475424390"},{"location":{"street":"200 Jackson St","city":"San Francisco","state":"CA","country":"United States","zip":"94111-1806","latitude":37.7970009,"longitude":-122.3998795},"name":"Kokkari Restaurant","likes":2259,"talking_about_count":55,"were_here_count":28532,"id":"113290185363454"},{"location":{"street":"333 Geary St","city":"San Francisco","state":"CA","country":"United States","zip":"94102","latitude":37.78719572039,"longitude":-122.4086336419},"name":"Lefty O'Douls Restaurant & Cocktail Lounge","likes":4226,"talking_about_count":184,"were_here_count":46315,"id":"149381101783841"},{"location":{"street":"4 Embarcadero Ctr","city":"San Francisco","state":"CA","country":"United States","zip":"94111","latitude":37.795001803895,"longitude":-122.39556986516},"name":"Sens Restaurant","likes":3974,"talking_about_count":114,"were_here_count":22615,"id":"207987695900543"},{"location":{"street":"1420 Market St","city":"San Francisco","state":"CA","country":"United States","zip":"94102","latitude":37.7762794,"longitude":-122.4181595},"name":"Alta CA","likes":582,"talking_about_count":43,"were_here_count":3476,"id":"602530669785382"},{"location":{"street":"231 Franklin St","city":"San Francisco","state":"CA","country":"United States","zip":"94102","latitude":37.77743,"longitude":-122.42131},"name":"NoJo Restaurant","talking_about_count":0,"were_here_count":14,"id":"577506672273532"},{"location":{"street":"345 Spear St","city":"San Francisco","state":"CA","country":"United States","zip":"94105","latitude":37.7897987,"longitude":-122.3897476},"name":"Palomino - San Francisco","likes":245,"talking_about_count":162,"were_here_count":12730,"id":"533618283373845"},{"location":{"street":"2298 Market St","city":"San Francisco","state":"CA","country":"United States","zip":"94114","latitude":37.764575861235,"longitude":-122.43298473026},"name":"Cafe Flore San Francisco Cafe & Outdoor Patio Restaurant","likes":3475,"talking_about_count":73,"were_here_count":34272,"id":"374625077447"},{"location":{"street":"1355 Market St","city":"San Francisco","state":"CA","country":"United States","zip":"94103","latitude":37.776741,"longitude":-122.4163589},"name":"Dirty Water SF","likes":1472,"talking_about_count":453,"were_here_count":800,"id":"498723830202841"},{"location":{"street":"1801 Market St","city":"San Francisco","state":"CA","country":"United States","zip":"94103","latitude":37.7713585,"longitude":-122.4236984},"name":"It's Tops Restaurant & Coffee Shop","likes":385,"talking_about_count":20,"were_here_count":4307,"id":"133494676690998"},{"location":{"street":"1737_Post_Street","city":"San Francisco","state":"CA","country":"United States","zip":"94115","latitude":37.7853546,"longitude":-122.4303894},"name":"Benihana","likes":247,"talking_about_count":197,"were_here_count":6746,"id":"1518221798466158"},{"location":{"street":"409 Gough St","city":"San Francisco","state":"CA","country":"United States","zip":"94102","latitude":37.7770691,"longitude":-122.4231796},"name":"Dobbs Ferry SF","likes":1220,"talking_about_count":37,"were_here_count":10085,"id":"216152205114503"},{"location":{"street":"1800 Montgomery St","city":"San Francisco","state":"CA","country":"United States","zip":"94111","latitude":37.8055992,"longitude":-122.4052048},"name":"Hillstone Restaurant (San Francisco)","likes":1614,"talking_about_count":90,"were_here_count":25734,"id":"142677472461778"},{"location":{"street":"","city":"San Francisco","state":"CA","country":"United States","zip":"94103","latitude":37.771793,"longitude":-122.4167265},"name":"Restaurante \"Los Yaquis\"","likes":1,"talking_about_count":0,"were_here_count":2,"id":"151227711684126"},{"location":{"street":"1532 Howard St","city":"San Francisco","state":"CA","country":"United States","zip":"94103","latitude":37.7727699,"longitude":-122.4162216},"name":"Suriya Thai Restaurant","likes":33,"talking_about_count":0,"were_here_count":10,"id":"151403888216724"},{"location":{"street":"330 Gough St","city":"San Francisco","state":"CA","country":"United States","zip":"94102-5115","latitude":37.7762947,"longitude":-122.4226837},"name":"Las Estrellas","likes":26,"talking_about_count":0,"were_here_count":402,"id":"107230565982207"},{"location":{"street":"1760 Market St","city":"San Francisco","state":"CA","country":"United States","zip":"94102","latitude":37.7725105,"longitude":-122.4230423},"name":"Signature sushi restaurant","likes":69,"talking_about_count":0,"were_here_count":1,"id":"262937113877724"},{"location":{"street":"Tes","city":"San Francisco","state":"CA","country":"United States","zip":"94102","latitude":37.7756106,"longitude":-122.4223098},"name":"At Our Favorite Restaurant","talking_about_count":0,"were_here_count":8,"id":"138163189620134"},{"location":{"street":"","city":"San Francisco","state":"CA","country":"United States","zip":"94108","latitude":37.790450193337,"longitude":-122.40539849606},"name":"Kimpton Hotels & Restaurants","likes":78444,"talking_about_count":456,"were_here_count":0,"id":"51530158577"},{"location":{"street":"655 Jackson St","city":"San Francisco","state":"CA","country":"United States","zip":"94133","latitude":37.7960014,"longitude":-122.4059982},"name":"Z&Y restaurant","likes":8228,"talking_about_count":115,"were_here_count":3864,"id":"155904107832890"},{"location":{"street":"400 Grove St","city":"San Francisco","state":"CA","country":"United States","zip":"94102","latitude":37.7780685,"longitude":-122.4236603},"name":"Little Gem","likes":283,"talking_about_count":10,"were_here_count":0,"id":"407243466126013"},{"location":{"street":"201 Ninth St","city":"San Francisco","state":"CA","country":"United States","zip":"94103","latitude":37.7750282,"longitude":-122.4128113},"name":"AsiaSF","likes":17307,"talking_about_count":113,"were_here_count":47086,"id":"37586043908"},{"location":{"street":"1233 Polk St","city":"San Francisco","state":"CA","country":"United States","zip":"94109","latitude":37.788269,"longitude":-122.4205322},"name":"Mayes","likes":2994,"talking_about_count":119,"were_here_count":18885,"id":"180416081516"},{"location":{"street":"Pier 39, Box M-211","city":"San Francisco","state":"CA","country":"United States","zip":"94133","latitude":37.811099443978,"longitude":-122.41037178018},"name":"Bubba Gump Shrimp Co. San Francisco","likes":3830,"talking_about_count":1065,"were_here_count":72580,"id":"241299762709423"},{"location":{"street":"371 10th St","city":"San Francisco","state":"CA","country":"United States","zip":"94103","latitude":37.7721291,"longitude":-122.4115829},"name":"Hampton Creek","likes":179005,"talking_about_count":4548,"were_here_count":0,"id":"250638958292309"},{"location":{"street":"39 Pier #256","city":"San Francisco","state":"CA","country":"United States","zip":"94133","latitude":37.8088226,"longitude":-122.4102173},"name":"Hard Rock Cafe San Francisco","likes":32543,"talking_about_count":740,"were_here_count":119017,"id":"302266375623"},{"location":{"street":"358 Brannan St","city":"San Francisco","state":"CA","country":"United States","zip":"94107","latitude":37.7808609,"longitude":-122.3935394},"name":"Koding","likes":37733,"talking_about_count":79,"were_here_count":53,"id":"109012155844171"},{"location":{"street":"1906 Van Ness Ave","city":"San Francisco","state":"CA","country":"United States","zip":"94109","latitude":37.7933807,"longitude":-122.4225006},"name":"House of Prime Rib","likes":10438,"talking_about_count":102,"were_here_count":118680,"id":"329108135277"},{"location":{"street":"20215 Shoreline Highway","city":"Marshall","state":"CA","country":"United States","zip":"94940","latitude":37.795990691061,"longitude":-122.3935533299},"name":"Hog Island Oyster Co.","likes":11972,"talking_about_count":991,"were_here_count":0,"id":"106823649292"},{"location":{"street":"325 Columbus Ave","city":"San Francisco","state":"CA","country":"United States","zip":"94133","latitude":37.7980614,"longitude":-122.4075012},"name":"The Stinking Rose","likes":13606,"talking_about_count":960,"were_here_count":87667,"id":"170918520599"},{"location":{"street":"1 Ferry Building #3","city":"San Francisco","state":"CA","country":"United States","zip":"94111","latitude":37.796200090501,"longitude":-122.39387414227},"name":"The Slanted Door","likes":8901,"talking_about_count":485,"were_here_count":74208,"id":"436927956347133"},{"location":{"street":"1686 Market St","city":"San Francisco","state":"CA","country":"United States","zip":"94102","latitude":37.7734146,"longitude":-122.42173},"name":"Espetus Churrascaria","likes":7033,"talking_about_count":346,"were_here_count":60647,"id":"228664875021"},{"location":{"street":"145 Jefferson Street, Suite 400","city":"San Francisco","state":"CA","country":"United States","zip":"94133","latitude":37.808232108307,"longitude":-122.4145672788},"name":"Rainforest Cafe Fishermans Wharf","likes":1060,"talking_about_count":1093,"were_here_count":32192,"id":"443504695775964"},{"location":{"street":"PIER 39","city":"San Francisco","state":"CA","country":"United States","zip":"94133","latitude":37.8088226,"longitude":-122.4102173},"name":"Fog Harbor Fish House","likes":4560,"talking_about_count":1042,"were_here_count":55180,"id":"112082222181980"},{"location":{"street":"333 Jefferson","city":"San Francisco","state":"CA","country":"United States","zip":"94133","latitude":37.80779910521,"longitude":-122.41842609799},"name":"In-N-Out Burger - San Francisco","likes":2898,"talking_about_count":407,"were_here_count":56839,"id":"120105281400716"},{"location":{"street":"399 The Embarcadero","city":"San Francisco","state":"CA","country":"United States","zip":"94105","latitude":37.790594534186,"longitude":-122.38912063385},"name":"Waterbar","likes":6041,"talking_about_count":404,"were_here_count":61199,"id":"63511248021"},{"location":{"street":"245 Jefferson St","city":"San Francisco","state":"CA","country":"United States","zip":"94133","latitude":37.808021944605,"longitude":-122.41654201269},"name":"Joe's Crab Shack","likes":3107,"talking_about_count":402,"were_here_count":77023,"id":"109028025797820"},{"location":{"street":"560 Divisadero St","city":"San Francisco","state":"CA","country":"United States","zip":"94117","latitude":37.7748299,"longitude":-122.4374619},"name":"Nopasf","likes":6346,"talking_about_count":206,"were_here_count":45365,"id":"156376151081465"},{"location":{"street":"251 Geary St","city":"San Francisco","state":"CA","country":"United States","zip":"94102","latitude":37.7873306,"longitude":-122.407402},"name":"Cheesecake Factory, San Francisco, 8th Floor Macys","likes":718,"talking_about_count":879,"were_here_count":22208,"id":"126377614096641"},{"location":{"street":"2518 Mission St","city":"San Francisco","state":"CA","country":"United States","zip":"94115","latitude":37.7566109,"longitude":-122.4192734},"name":"El Techo de Lolinda","likes":1576,"talking_about_count":406,"were_here_count":24137,"id":"553652874686190"},{"location":{"street":"pier 1 \u00bd, the embarcadero","city":"San Francisco","state":"CA","country":"United States","zip":"94111","latitude":37.797189136138,"longitude":-122.39534495629},"name":"La Mar Cebicheria Peruana San Francisco","likes":11104,"talking_about_count":288,"were_here_count":50483,"id":"38674577795"},{"location":{"street":"2534 Mission St","city":"San Francisco","state":"CA","country":"United States","zip":"94110","latitude":37.7563705,"longitude":-122.4192505},"name":"Foreign Cinema","likes":7375,"talking_about_count":316,"were_here_count":55757,"id":"33786735008"},{"location":{"street":"652 Polk St","city":"San Francisco","state":"CA","country":"United States","zip":"94109","latitude":37.7829018,"longitude":-122.4189682},"name":"Brenda's French Soul Food","likes":7714,"talking_about_count":51,"were_here_count":58920,"id":"111763035591231"},{"location":{"street":"203 C Pier 39","city":"San Francisco","state":"CA","country":"United States","zip":"94133","latitude":37.809391081253,"longitude":-122.41047544637},"name":"Crab House at Pier 39","likes":3853,"talking_about_count":381,"were_here_count":39612,"id":"144381111597"},{"location":{"street":"Pier 23 On the Embarcadero","city":"San Francisco","state":"CA","country":"United States","zip":"94111","latitude":37.803363639235,"longitude":-122.40085326377},"name":"Pier 23 Cafe","likes":4298,"talking_about_count":304,"were_here_count":55325,"id":"137366072992577"},{"location":{"street":"1529 Fillmore St","city":"San Francisco","state":"CA","country":"United States","zip":"94115","latitude":37.78385248797,"longitude":-122.43292788474},"name":"State Bird Provisions","likes":8224,"talking_about_count":258,"were_here_count":21890,"id":"330491963635013"},{"location":{"street":"3692 18th St","city":"San Francisco","state":"CA","country":"United States","zip":"94110","latitude":37.7615891,"longitude":-122.4257584},"name":"Bi-Rite Creamery","likes":10898,"talking_about_count":541,"were_here_count":50851,"id":"230024712481"},{"location":{"street":"631 Kearny St","city":"San Francisco","state":"CA","country":"United States","zip":"94108","latitude":37.7941208,"longitude":-122.4049225},"name":"R&G Lounge","likes":2509,"talking_about_count":276,"were_here_count":50194,"id":"46313958681"},{"location":{"street":"PIER 5, THE EMBARCADERO","city":"San Francisco","state":"CA","country":"United States","zip":"94111","latitude":37.798489923346,"longitude":-122.39671209397},"name":"Coqueta","likes":1824,"talking_about_count":242,"were_here_count":26185,"id":"288969437902894"},{"location":{"street":"2889 Mission St","city":"San Francisco","state":"CA","country":"United States","zip":"94110-3907","latitude":37.7508812,"longitude":-122.4180527},"name":"La Taqueria","likes":5709,"talking_about_count":304,"were_here_count":29149,"id":"107430599294764"},{"location":{"street":"Pier 39","city":"San Francisco","state":"CA","country":"United States","zip":"94133","latitude":37.809857857269,"longitude":-122.41055604315},"name":"Pier Market","likes":3918,"talking_about_count":209,"were_here_count":21620,"id":"102179917117"},{"location":{"street":"2847 Taylor St","city":"San Francisco","state":"CA","country":"United States","zip":"94133","latitude":37.8088799,"longitude":-122.4159851},"name":"9 Fishermen's Grotto","likes":5608,"talking_about_count":798,"were_here_count":30675,"id":"33942773422"},{"location":{"street":"50 Francisco Street, Suite 200","city":"San Francisco","state":"CA","country":"United States","zip":"94133","latitude":37.8056984,"longitude":-122.4062653},"name":"Boudin","likes":46414,"talking_about_count":234,"were_here_count":167193,"id":"118831509193"},{"location":{"street":"1001 South Van Ness Ave, 524 Valencia St & 5800 Third St","city":"San Francisco","state":"CA","country":"United States","zip":"94110","latitude":37.757130544119,"longitude":-122.41670055833},"name":"Lim\u00f3n-SF","likes":3164,"talking_about_count":154,"were_here_count":25702,"id":"122161073279"},{"location":{"street":"1101 Geary Blvd","city":"San Francisco","state":"CA","country":"United States","zip":"94109-6815","latitude":37.7854881,"longitude":-122.4217987},"name":"Tommy's Joynt","likes":7225,"talking_about_count":182,"were_here_count":41440,"id":"116076945072769"},{"location":{"street":"1701 Stockton St","city":"San Francisco","state":"CA","country":"United States","zip":"94133","latitude":37.8015289,"longitude":-122.4095612},"name":"Mama's on Washington Square","likes":4384,"talking_about_count":37,"were_here_count":40887,"id":"44218047851"},{"location":{"street":"400 Jefferson St","city":"San Francisco","state":"CA","country":"United States","zip":"94109","latitude":37.8079033,"longitude":-122.4192886},"name":"Cioppino's","likes":2733,"talking_about_count":238,"were_here_count":30951,"id":"200458139695"},{"location":{"street":"601 Union St","city":"San Francisco","state":"CA","country":"United States","zip":"94133","latitude":37.800209,"longitude":-122.4094467},"name":"Original Joe's San Francisco","likes":4465,"talking_about_count":330,"were_here_count":29175,"id":"211603332199335"},{"location":{"street":"558 Sacramento St","city":"San Francisco","state":"CA","country":"United States","zip":"94111","latitude":37.7939987,"longitude":-122.4023209},"name":"Wayfare Tavern","likes":6745,"talking_about_count":154,"were_here_count":45061,"id":"104890032880981"},{"location":{"street":"1 Kearny St","city":"San Francisco","state":"CA","country":"United States","zip":"94108","latitude":37.7880516,"longitude":-122.4036865},"name":"Hakkasan San Francisco","likes":5528,"talking_about_count":152,"were_here_count":24829,"id":"301456673292626"},{"location":{"street":"2565 Mission St","city":"San Francisco","state":"CA","country":"United States","zip":"94110","latitude":37.7560883,"longitude":-122.4184494},"name":"Balan\u00e7oire","likes":1652,"talking_about_count":177,"were_here_count":14556,"id":"203383939800687"},{"location":{"street":"3499 16th St","city":"San Francisco","state":"CA","country":"United States","zip":"94114","latitude":37.7642365,"longitude":-122.4306946},"name":"Kitchen Story","likes":1269,"talking_about_count":255,"were_here_count":19354,"id":"165560903585512"},{"location":{"street":"855 Howard St","city":"San Francisco","state":"CA","country":"United States","zip":"94103","latitude":37.7820892,"longitude":-122.4037704},"name":"Buca di Beppo San Francisco CA","likes":1628,"talking_about_count":115,"were_here_count":40191,"id":"228480680502216"},{"location":{"street":"2518 Mission St","city":"San Francisco","state":"CA","country":"United States","zip":"94110","latitude":37.756621829968,"longitude":-122.41908632871},"name":"Lolinda","likes":1780,"talking_about_count":177,"were_here_count":15297,"id":"347694671971827"},{"location":{"street":"817 Terry Francois St","city":"San Francisco","state":"CA","country":"United States","zip":"94158","latitude":37.765442051165,"longitude":-122.38662332088},"name":"Mission Rock Resort","likes":1307,"talking_about_count":214,"were_here_count":19861,"id":"167530100038525"},{"location":{"street":"101 Spear Street, Rincon Center","city":"San Francisco","state":"CA","country":"United States","zip":"94105","latitude":37.792535400143,"longitude":-122.39304276026},"name":"Yank Sing","likes":1794,"talking_about_count":152,"were_here_count":0,"id":"119395094837758"},{"location":{"street":"900 North Point St (At Beach & Larkin Streets)","city":"San Francisco","state":"CA","country":"United States","zip":"94109","latitude":37.806324425739,"longitude":-122.42264007236},"name":"McCormick & Kuleto's Seafood - San Francisco, CA","likes":1180,"talking_about_count":101,"were_here_count":25930,"id":"103100456457916"},{"location":{"street":"2101 Sutter St","city":"San Francisco","state":"CA","country":"United States","zip":"94115","latitude":37.785828415756,"longitude":-122.43500715718},"name":"Sweet Maple","likes":1706,"talking_about_count":33,"were_here_count":23461,"id":"162317573805310"},{"location":{"street":"2323 Mission St","city":"San Francisco","state":"CA","country":"United States","zip":"94110","latitude":37.759861,"longitude":-122.418808},"name":"Dr. Teeth and the Electric Mayhem","likes":3667,"talking_about_count":137,"were_here_count":29123,"id":"267080146648401"},{"location":{"street":"741 Valencia St","city":"San Francisco","state":"CA","country":"United States","zip":"94110","latitude":37.7609787,"longitude":-122.4211273},"name":"Tacolicious","likes":892,"talking_about_count":33,"were_here_count":22633,"id":"169355403145688"},{"location":{"street":"75 Yerba Buena Ln","city":"San Francisco","state":"CA","country":"United States","zip":"94103","latitude":37.785690847599,"longitude":-122.40379601436},"name":"Tropisue\u00f1o SF","likes":2383,"talking_about_count":200,"were_here_count":28747,"id":"132127506826790"},{"location":{"street":"2779 Mission St","city":"San Francisco","state":"CA","country":"United States","zip":"94110","latitude":37.75253476275,"longitude":-122.41836054943},"name":"Taqueria El Farolito","likes":2137,"talking_about_count":180,"were_here_count":23643,"id":"169779226391606"},{"location":{"street":"2140 Union St","city":"San Francisco","state":"CA","country":"United States","zip":"94123","latitude":37.7974892,"longitude":-122.4345627},"name":"The Brixton San Francisco","likes":4416,"talking_about_count":128,"were_here_count":38176,"id":"171229079554355"},{"location":{"street":"525 Laguna St","city":"San Francisco","state":"CA","country":"United States","zip":"94102","latitude":37.7762718,"longitude":-122.4263611},"name":"Suppenk\u00fcche","likes":4503,"talking_about_count":106,"were_here_count":35011,"id":"57296796171"},{"location":{"street":"2327 Mission St","city":"San Francisco","state":"CA","country":"United States","zip":"94110","latitude":37.759823420833,"longitude":-122.41909139989},"name":"Cha Cha Cha Mission St.","likes":2213,"talking_about_count":34,"were_here_count":26204,"id":"170730666869"},{"location":{"street":"28 6th St","city":"San Francisco","state":"CA","country":"United States","zip":"94103","latitude":37.7816696,"longitude":-122.4099808},"name":"Dottie's True Blue Cafe","likes":3217,"talking_about_count":137,"were_here_count":28410,"id":"107379952632014"},{"location":{"street":"2368 Third St","city":"San Francisco","state":"CA","country":"United States","zip":"94107","latitude":37.7595787,"longitude":-122.3887787},"name":"Poquito","likes":326378,"talking_about_count":449,"were_here_count":3287,"id":"147399938634984"},{"location":{"street":"430 Columbus Ave","city":"San Francisco","state":"CA","country":"United States","zip":"94133","latitude":37.7990494,"longitude":-122.4081497},"name":"Calzone's","likes":2248,"talking_about_count":155,"were_here_count":28744,"id":"142545814899"},{"location":{"street":"1700 Fillmore & 995 Valencia","city":"San Francisco","state":"CA","country":"United States","zip":"94115","latitude":37.785335517386,"longitude":-122.43288071904},"name":"DOSA","likes":6787,"talking_about_count":168,"were_here_count":31771,"id":"107397076477"},{"location":{"street":"4 Embarcadero Ctr","city":"San Francisco","state":"CA","country":"United States","zip":"94111","latitude":37.795016449782,"longitude":-122.39539739551},"name":"OSHA Thai San Francisco","likes":1059,"talking_about_count":158,"were_here_count":17929,"id":"174512266006629"},{"location":{"street":"3491 19th Street, San Francisco, CA","city":"San Francisco","state":"CA","country":"United States","zip":"94110","latitude":37.76012416951,"longitude":-122.42113422998},"name":"Boba Guys","likes":12642,"talking_about_count":117,"were_here_count":4059,"id":"136972233062657"},{"location":{"street":"941 Cole St","city":"San Francisco","state":"CA","country":"United States","zip":"94117","latitude":37.765254738096,"longitude":-122.45005465938},"name":"Zazie San Francisco","likes":2647,"talking_about_count":134,"were_here_count":22226,"id":"117734054960183"},{"location":{"street":"919 Kearny St","city":"San Francisco","state":"CA","country":"United States","zip":"94133","latitude":37.7964287,"longitude":-122.4053802},"name":"House of Nanking","likes":2163,"talking_about_count":158,"were_here_count":17162,"id":"352326234856760"},{"location":{"street":"150 Stockton St","city":"San Francisco","state":"CA","country":"United States","zip":"94108-4680","latitude":37.787590583418,"longitude":-122.40654318896},"name":"The Rotunda","likes":585,"talking_about_count":106,"were_here_count":22874,"id":"121813974537619"},{"location":{"street":"3214 16th St","city":"San Francisco","state":"CA","country":"United States","zip":"94103","latitude":37.7649803,"longitude":-122.424469},"name":"KRUA THAI","likes":9063,"talking_about_count":197,"were_here_count":3456,"id":"261334553886425"},{"location":{"street":"3583 16th St","city":"San Francisco","state":"CA","country":"United States","zip":"94114","latitude":37.764117603502,"longitude":-122.43262779465},"name":"Starbelly","likes":2888,"talking_about_count":141,"were_here_count":28911,"id":"221002735300"},{"location":{"street":"439 Powell St","city":"San Francisco","state":"CA","country":"United States","zip":"94102","latitude":37.7887688,"longitude":-122.4087906},"name":"Sears Fine Food","likes":1345,"talking_about_count":278,"were_here_count":11051,"id":"395510437181898"},{"location":{"street":"1640 Post St","city":"San Francisco","state":"CA","country":"United States","zip":"94115","latitude":37.7859306,"longitude":-122.4288635},"name":"YakiniQ","likes":913,"talking_about_count":7,"were_here_count":29170,"id":"171537182858955"},{"location":{"street":"","city":"San Francisco","state":"CA","country":"United States","zip":"94103","latitude":37.784504106364,"longitude":-122.40634209514,"located_in":"298259097620"},"name":"M.Y. China","likes":2407,"talking_about_count":121,"were_here_count":10705,"id":"218918864805678"},{"location":{"street":"12 Fourth St (5th Floor)","city":"San Francisco","state":"CA","country":"United States","zip":"94103","latitude":37.7849884,"longitude":-122.4056702},"name":"Dirty Habit","likes":2021,"talking_about_count":130,"were_here_count":8943,"id":"619445611464790"},{"location":{"street":"1475 Polk St","city":"San Francisco","state":"CA","country":"United States","zip":"94109","latitude":37.7902794,"longitude":-122.4208984},"name":"Crustacean San Francisco","likes":3722,"talking_about_count":116,"were_here_count":24723,"id":"314379729213"},{"location":{"street":"2209 Polk St","city":"San Francisco","state":"CA","country":"United States","zip":"94109","latitude":37.797081,"longitude":-122.4222565},"name":"Bullitt","likes":1940,"talking_about_count":82,"were_here_count":29234,"id":"108571432494098"},{"location":{"street":"2740 Mission St","city":"San Francisco","state":"CA","country":"United States","zip":"94110","latitude":37.7530708,"longitude":-122.4188919},"name":"Pollo Campero","likes":1237,"talking_about_count":115,"were_here_count":9806,"id":"351264831656998"},{"location":{"street":"2036 Lombard St","city":"San Francisco","state":"CA","country":"United States","zip":"94123","latitude":37.8002014,"longitude":-122.4355621},"name":"Stock in Trade","likes":3200,"talking_about_count":64,"were_here_count":11822,"id":"210518595744270"},{"location":{"street":"2295 Market St","city":"San Francisco","state":"CA","country":"United States","zip":"94114","latitude":37.764257,"longitude":-122.432663},"name":"Sliderbar","likes":14781,"talking_about_count":49,"were_here_count":11128,"id":"76563624994"},{"location":{"street":"1525 Fillmore St","city":"San Francisco","state":"CA","country":"United States","zip":"94115","latitude":37.78368,"longitude":-122.4329605},"name":"The Progress","likes":996,"talking_about_count":26,"were_here_count":5097,"id":"320903948090545"},{"location":{"street":"601 Eddy St","city":"San Francisco","state":"CA","country":"United States","zip":"94109","latitude":37.7829514,"longitude":-122.4180527},"name":"Chambers eat + drink","likes":3043,"talking_about_count":104,"were_here_count":26020,"id":"133816583354914"},{"location":{"street":"240 California St","city":"San Francisco","state":"CA","country":"United States","zip":"94111-4370","latitude":37.79356,"longitude":-122.3994827},"name":"Tadich Grill","likes":1668,"talking_about_count":120,"were_here_count":23650,"id":"116060961738518"},{"location":{"street":"424 Octavia St","city":"San Francisco","state":"CA","country":"United States","zip":"94102","latitude":37.7760239,"longitude":-122.4240723},"name":"Biergarten","likes":3007,"talking_about_count":109,"were_here_count":23351,"id":"152141858158066"},{"location":{"street":"352 Grant Ave","city":"San Francisco","state":"CA","country":"United States","zip":"94108","latitude":37.790546021281,"longitude":-122.40553142162},"name":"Caf\u00e9 de la Presse","likes":2894,"talking_about_count":107,"were_here_count":10662,"id":"100511026693308"},{"location":{"street":"2200 Market St","city":"San Francisco","state":"CA","country":"United States","zip":"94114","latitude":37.7657394,"longitude":-122.4314804},"name":"HECHO","likes":1244,"talking_about_count":94,"were_here_count":5174,"id":"556429261123740"},{"location":{"street":"2367 Market St","city":"San Francisco","state":"CA","country":"United States","zip":"94114","latitude":37.7628288,"longitude":-122.4343491},"name":"Bisou Bistro","likes":1957,"talking_about_count":64,"were_here_count":28281,"id":"114329341935381"},{"location":{"street":"170 Ofarrell St","city":"San Francisco","state":"CA","country":"United States","zip":"94102-2202","latitude":37.788094505946,"longitude":-122.40767271918},"name":"Burger Bar","likes":1036,"talking_about_count":50,"were_here_count":39703,"id":"107064682667227"},{"location":{"street":"3318 Mission St","city":"San Francisco","state":"CA","country":"United States","zip":"94110","latitude":37.743673105476,"longitude":-122.42129742172},"name":"Playa Azul Resturant","likes":1747,"talking_about_count":72,"were_here_count":18885,"id":"157146627662104"},{"location":{"street":"4 Embarcadero Ctr","city":"San Francisco","state":"CA","country":"United States","zip":"94111","latitude":37.7955284,"longitude":-122.3962326},"name":"Crystal Jade Embarcadero","likes":208,"talking_about_count":53,"were_here_count":4910,"id":"378461628975823"},{"location":{"street":"3224 1\/2 22nd St","city":"San Francisco","state":"CA","country":"United States","zip":"94110","latitude":37.7555199,"longitude":-122.419548},"name":"Los Shucos Latin Hot Dogs","likes":11783,"talking_about_count":590,"were_here_count":1418,"id":"436709553068324"},{"location":{"street":"552 Green St","city":"San Francisco","state":"CA","country":"United States","zip":"94133","latitude":37.7997894,"longitude":-122.4083405},"name":"Sotto Mare","likes":782,"talking_about_count":109,"were_here_count":15534,"id":"149107395118822"},{"location":{"street":"360 Jessie St","city":"San Francisco","state":"CA","country":"United States","zip":"94103","latitude":37.783234531184,"longitude":-122.40681204224},"name":"The Cavalier SF","likes":951,"talking_about_count":98,"were_here_count":8447,"id":"474850735931563"},{"location":{"street":"242 Ofarrell St","city":"San Francisco","state":"CA","country":"United States","zip":"94102","latitude":37.7864418,"longitude":-122.4089737},"name":"Bartlett Hall","likes":1024,"talking_about_count":86,"were_here_count":7178,"id":"194314744105331"},{"location":{"street":"Northern California","zip":"","latitude":37.7934494,"longitude":-122.3981781},"name":"Take One Pizza","likes":3630,"talking_about_count":577,"were_here_count":673,"id":"347605192088435"},{"location":{"street":"","city":"San Francisco","state":"CA","country":"United States","zip":"","latitude":37.800692353236,"longitude":-122.436801942},"name":"Tacolicious","likes":6725,"talking_about_count":145,"were_here_count":0,"id":"142762476127"},{"location":{"street":"101 California St","city":"San Francisco","state":"CA","country":"United States","zip":"94111","latitude":37.7932892,"longitude":-122.3981628},"name":"Pabu SF","likes":1425,"talking_about_count":100,"were_here_count":7132,"id":"349941481806826"},{"location":{"street":"4416 18th St","city":"San Francisco","state":"CA","country":"United States","zip":"94114","latitude":37.760743087002,"longitude":-122.43868327931},"name":"Mama Ji's","likes":5995,"talking_about_count":62,"were_here_count":4752,"id":"185785668227051"},{"location":{"street":"1 Yerba Buena Ln","city":"San Francisco","state":"CA","country":"United States","zip":"94103","latitude":37.786215508746,"longitude":-122.40493287801},"name":"Bluestem Brasserie","likes":1657,"talking_about_count":89,"were_here_count":18495,"id":"140828012653337"},{"location":{"street":"2211 Mission St","city":"San Francisco","state":"CA","country":"United States","zip":"94103","latitude":37.7615395,"longitude":-122.4189682},"name":"Gracias Madre","likes":7829,"talking_about_count":135,"were_here_count":22223,"id":"188814372875"},{"location":{"street":"3200 Fillmore St","city":"San Francisco","state":"CA","country":"United States","zip":"94123","latitude":37.7991219,"longitude":-122.4357376},"name":"Sabrosa","likes":8226,"talking_about_count":112,"were_here_count":4587,"id":"337466339722125"}],"paging":{"next":"https:\/\/graph.facebook.com\/v2.4\/search?fields=location,name,likes,talking_about_count,were_here_count&limit=250&type=place&q=restaurant&center=37.7749295,-122.4194155&distance=5000&access_token=1452021355091002|x-ZB0iKqWQmYqnJQ-wXoUjl-XtY&offset=250&__after_id=enc_AdB8w1wIkOW1TYbFlHgOqvR0ZCz2S0QEkWQWPPClecHWkAH5n6dDPZCD31TQcGhngG74m1ZARdP7GwZABbIRN2YdRKpZB"}}